{"name":"Earle B. Wood MS","category":"MIDDLE SCHOOLS","city":"Rockville","address":"14615 Bauer Dr","phone":"301-460-2150","latitude":39.093294956,"longitude":-77.1075293636}
{"name":"Parkland MS","category":"MIDDLE SCHOOLS","city":"Rockville","address":"4610 W Frankfort Dr","phone":"301-438-5700","latitude":39.0841517945,"longitude":-77.0916686732}
{"name":"Briggs Chaney MS","category":"MIDDLE SCHOOLS","city":"Silver Spring","address":"1901 Rainbow Dr","phone":"301-989-6000","latitude":39.1097896862,"longitude":-76.9714624882}
{"name":"Martin Luther King MS","category":"MIDDLE SCHOOLS","city":"Germantown","address":"13737 Wisteria Dr","phone":"301-353-8080","latitude":39.1809127605,"longitude":-77.2851000471}
{"name":"Kingsview MS","category":"MIDDLE SCHOOLS","city":"Germantown","address":"18909 Kingsview Rd","phone":"301-601-4611","latitude":39.1661607823,"longitude":-77.2850448312}
{"name":"Argyle MS","category":"MIDDLE SCHOOLS","city":"Silver Spring","address":"2400 Bel Pre Rd","phone":"301-460-2400","latitude":39.0895212498,"longitude":-77.048924226}
{"name":"Rocky Hill MS","category":"MIDDLE SCHOOLS","city":"Clarksburg","address":"22401 Brick Haven Way","phone":"301-353-8282","latitude":39.2218821148,"longitude":-77.2634759958}
{"name":"Neelsville MS","category":"MIDDLE SCHOOLS","city":"Germantown","address":"11700 Neelsville Church Rd","phone":"301-353-8064","latitude":39.1940928847,"longitude":-77.2405597451}
{"name":"John T Baker MS","category":"MIDDLE SCHOOLS","city":"Damascus","address":"25400 Oak Dr","phone":"301-253-7010","latitude":39.2741001904,"longitude":-77.2187711116}
{"name":"Thomas W Pyle MS","category":"MIDDLE SCHOOLS","city":"Bethesda","address":"6311 Wilson La","phone":"301-320-6540","latitude":38.9888410039,"longitude":-77.1296136734}
{"name":"Westland MS","category":"MIDDLE SCHOOLS","city":"Bethesda","address":"5511 Massachusetts Ave","phone":"301-320-6515","latitude":38.9603838716,"longitude":-77.1089289733}
{"name":"North Bethesda MS","category":"MIDDLE SCHOOLS","city":"Bethesda","address":"8935 Bradmoor Dr","phone":"301-571-3883","latitude":39.0045827558,"longitude":-77.1248538896}
{"name":"Herbert Hoover MS (Construction)","category":"MIDDLE SCHOOLS","city":"Potomac","address":"8810 Post Oak Rd","phone":"301-469-1010","latitude":39.0448587758,"longitude":-77.1786375804}
{"name":"Tilden MS","category":"MIDDLE SCHOOLS","city":"Rockville","address":"11211 Old Georgetown Rd","phone":"301-230-5930","latitude":39.038258394,"longitude":-77.1219142526}
{"name":"Cabin John MS","category":"MIDDLE SCHOOLS","city":"Potomac","address":"10701 Gainsborough Rd","phone":"301-469-1150","latitude":39.0315783821,"longitude":-77.1720217394}
{"name":"Takoma Park MS","category":"MIDDLE SCHOOLS","city":"Takoma Park","address":"7611 Piney Branch Rd","phone":"301-650-6444","latitude":38.9854294113,"longitude":-77.0130811462}
{"name":"Silver Spring International MS","category":"MIDDLE SCHOOLS","city":"Silver Spring","address":"313 Wayne Ave","phone":"301-650-6544","latitude":39.0005798316,"longitude":-77.0147746936}
{"name":"Sligo MS","category":"MIDDLE SCHOOLS","city":"Silver Spring","address":"1401 Dennis Ave","phone":"301-649-8121","latitude":39.0267787982,"longitude":-77.0328776196}
{"name":"Francis Scott Key MS","category":"MIDDLE SCHOOLS","city":"Silver Spring","address":"910 Schindler Dr","phone":"301-422-5600","latitude":39.0276166438,"longitude":-76.9922116369}
{"name":"Eastern MS","category":"MIDDLE SCHOOLS","city":"Silver Spring","address":"300 E University Blv","phone":"301-650-6650","latitude":39.0118461813,"longitude":-77.0008858418}
{"name":"Col E Brooke Lee MS","category":"MIDDLE SCHOOLS","city":"Silver Spring","address":"11800 Monticello Ave","phone":"301-649-8100","latitude":39.0496028325,"longitude":-77.0307001852}
{"name":"White Oak MS","category":"MIDDLE SCHOOLS","city":"Silver Spring","address":"12201 New Hampshire Ave","phone":"301-989-5780","latitude":39.0565217301,"longitude":-76.9953329495}
{"name":"Forest Oak MS","category":"MIDDLE SCHOOLS","city":"Gaithersburg","address":"651 Saybrooke Oaks Blv","phone":"301-670-8242","latitude":39.1535621295,"longitude":-77.1844656503}
{"name":"John Poole MS","category":"MIDDLE SCHOOLS","city":"Poolesville","address":"17014 Tom Fox Ave","phone":"301-972-7979","latitude":39.1260537267,"longitude":-77.410844519}
{"name":"A Mario Loiederman MS","category":"MIDDLE SCHOOLS","city":"Silver Spring","address":"12701 Goodhill Rd","phone":"301-929-2282","latitude":39.065306494,"longitude":-77.0708351501}
{"name":"Lakelands Park MS","category":"MIDDLE SCHOOLS","city":"Gaithersburg","address":"1200 Main St","phone":"301-670-1400","latitude":39.115512598,"longitude":-77.2329591425}
{"name":"Herbert Hoover MS (at Tilden Center)","category":"MIDDLE SCHOOLS","city":"Rockville","address":"6300 Tilden La","phone":"301-469-1010","latitude":39.0423221394,"longitude":-77.1305753352}
{"name":"Benjamin Banneker MS","category":"MIDDLE SCHOOLS","city":"Burtonsville","address":"14800 Perrywood Dr","phone":"301-989-5747","latitude":39.0960860509,"longitude":-76.948403246}
{"name":"William H Farquhar MS","category":"MIDDLE SCHOOLS","city":"Olney","address":"16915 Batchellors Forest Rd","phone":"301-924-3100","latitude":39.134332601,"longitude":-77.0450643632}
{"name":"Rosa M Parks MS","category":"MIDDLE SCHOOLS","city":"Olney","address":"19200 Olney Mill Rd","phone":"301-924-3180","latitude":39.1719982569,"longitude":-77.0811949528}
{"name":"Shady Grove MS","category":"MIDDLE SCHOOLS","city":"Gaithersburg","address":"8100 Midcounty Hwy","phone":"301-548-7540","latitude":39.1431549327,"longitude":-77.1626472824}
{"name":"Redland MS","category":"MIDDLE SCHOOLS","city":"Rockville","address":"6505 Muncaster Mill Rd","phone":"301-840-4680","latitude":39.1405182884,"longitude":-77.1319130755}
{"name":"Newport Mill MS","category":"MIDDLE SCHOOLS","city":"Kensington","address":"11311 Newport Mill Rd","phone":"301-929-2244","latitude":39.041512287,"longitude":-77.0677974108}
{"name":"Gaithersburg MS","category":"MIDDLE SCHOOLS","city":"Gaithersburg","address":"2 Teachers Way","phone":"301-840-4554","latitude":39.1437648079,"longitude":-77.1875725096}
{"name":"Montgomery Village MS","category":"MIDDLE SCHOOLS","city":"Montgomery Village","address":"19300 Watkins Mill Rd","phone":"301-840-4660","latitude":39.1725103244,"longitude":-77.2094293659}
{"name":"Roberto W Clemente MS","category":"MIDDLE SCHOOLS","city":"Germantown","address":"18808 Waring Station Rd","phone":"301-601-0344","latitude":39.165823052,"longitude":-77.2479808749}
{"name":"Ridgeview MS","category":"MIDDLE SCHOOLS","city":"Gaithersburg","address":"16600 Raven Rock Dr","phone":"240-406-1300","latitude":39.127656608,"longitude":-77.249263077}
{"name":"Robert Frost MS","category":"MIDDLE SCHOOLS","city":"Rockville","address":"9201 Scott Dr","phone":"301-279-3949","latitude":39.0759509206,"longitude":-77.1876235891}
{"name":"Julius West MS","category":"MIDDLE SCHOOLS","city":"Rockville","address":"651 Great Falls Rd","phone":"301-279-3979","latitude":39.0767475193,"longitude":-77.1638855665}
{"name":"Richard Montgomery HS","category":"HIGH SCHOOLS","city":"Rockville","address":"250 Richard Montgomery Dr","phone":"301-610-8000","latitude":39.0772920776,"longitude":-77.1457297834}
{"name":"Rockville HS","category":"HIGH SCHOOLS","city":"Rockville","address":"2100 Baltimore Rd","phone":"301-517-8105","latitude":39.0863478113,"longitude":-77.1182723989}
{"name":"Northwest HS","category":"HIGH SCHOOLS","city":"Germantown","address":"13501 Richter Farm Rd","phone":"301-601-4660","latitude":39.1515925975,"longitude":-77.2793294162}
{"name":"Walter Johnson HS","category":"HIGH SCHOOLS","city":"Bethesda","address":"6400 Rock Spring Dr","phone":"301-803-7100","latitude":39.0253918855,"longitude":-77.1301017226}
{"name":"Montgomery Blair HS","category":"HIGH SCHOOLS","city":"Silver Spring","address":"51 E University Blv","phone":"301-649-2800","latitude":39.0182729296,"longitude":-77.0124342871}
{"name":"Poolesville HS","category":"HIGH SCHOOLS","city":"Poolesville","address":"17501 Willard Rd","phone":"301-972-7900","latitude":39.1431033716,"longitude":-77.4187801451}
{"name":"Watkins Mill HS","category":"HIGH SCHOOLS","city":"Gaithersburg","address":"10301 Apple Ridge Rd","phone":"301-840-3959","latitude":39.183966701,"longitude":-77.215836205}
{"name":"Damascus HS","category":"HIGH SCHOOLS","city":"Damascus","address":"25921 Ridge Rd","phone":"301-253-7030","latitude":39.2824956463,"longitude":-77.2100198748}
{"name":"Walt Whitman HS","category":"HIGH SCHOOLS","city":"Bethesda","address":"7100 Whittier Blv","phone":"301-320-6600","latitude":38.9816307564,"longitude":-77.1276727865}
{"name":"Bethesda-Chevy Chase HS","category":"HIGH SCHOOLS","city":"Bethesda","address":"4301 East West Hwy","phone":"240-497-6300","latitude":38.9868264765,"longitude":-77.0889699717}
{"name":"Winston Churchill HS","category":"HIGH SCHOOLS","city":"Potomac","address":"11300 Gainsborough Rd","phone":"301-469-1200","latitude":39.0443047898,"longitude":-77.1731281364}
{"name":"Albert Einstein HS","category":"HIGH SCHOOLS","city":"Kensington","address":"11135 Newport Mill Rd","phone":"301-929-2200","latitude":39.0396158925,"longitude":-77.0670360163}
{"name":"Wheaton HS","category":"HIGH SCHOOLS","city":"Silver Spring","address":"12601 Dalewood Dr","phone":"301-929-2050","latitude":39.0613378725,"longitude":-77.0666690813}
{"name":"John F Kennedy HS","category":"HIGH SCHOOLS","city":"Silver Spring","address":"1901 Randolph Rd","phone":"301-929-2100","latitude":39.0657502712,"longitude":-77.039027838}
{"name":"Springbrook HS","category":"HIGH SCHOOLS","city":"Silver Spring","address":"201 Valley Brook Dr","phone":"301-989-5700","latitude":39.0578019375,"longitude":-77.0056814998}
{"name":"Paint Branch HS","category":"HIGH SCHOOLS","city":"Burtonsville","address":"14121 Old Columbia Pik","phone":"301-989-5600","latitude":39.0886791828,"longitude":-76.9471015401}
{"name":"James Hubert Blake HS","category":"HIGH SCHOOLS","city":"Silver Spring","address":"300 Norwood Rd","phone":"301-879-1300","latitude":39.1133304559,"longitude":-77.0175061321}
{"name":"Northwood HS","category":"HIGH SCHOOLS","city":"Silver Spring","address":"919 University Blv W","phone":"301-649-8088","latitude":39.0356942671,"longitude":-77.0224839838}
{"name":"Clarksburg HS","category":"HIGH SCHOOLS","city":"Clarksburg","address":"22500 Wims Rd","phone":"301-444-3000","latitude":39.225501825,"longitude":-77.2655866221}
{"name":"Sherwood HS","category":"HIGH SCHOOLS","city":"Sandy Spring","address":"300 Olney Sandy Spring Rd","phone":"301-924-3200","latitude":39.148342372,"longitude":-77.018771801}
{"name":"Col Zadok Magruder HS","category":"HIGH SCHOOLS","city":"Rockville","address":"5939 Muncaster Mill Rd","phone":"301-840-4600","latitude":39.1313109818,"longitude":-77.1188059149}
{"name":"Gaithersburg HS","category":"HIGH SCHOOLS","city":"Gaithersburg","address":"314 S Frederick Ave","phone":"301-840-4700","latitude":39.1348394458,"longitude":-77.1954776183}
{"name":"Seneca Valley HS","category":"HIGH SCHOOLS","city":"Germantown","address":"19401 Crystal Rock Dr","phone":"301-353-8000","latitude":39.1750937217,"longitude":-77.2643319443}
{"name":"Quince Orchard HS","category":"HIGH SCHOOLS","city":"Gaithersburg","address":"15800 Quince Orchard Rd","phone":"301-840-4686","latitude":39.1159327009,"longitude":-77.254239085}
{"name":"Thomas S Wootton HS","category":"HIGH SCHOOLS","city":"Rockville","address":"2100 Wootton Pkw","phone":"301-279-8550","latitude":39.0765821359,"longitude":-77.1831974358}
{"name":"Dr Sally K Ride ES","category":"ELEMENTARY SCHOOLS","city":"Germantown","address":"21301 Seneca Crossing Dr","phone":"301-353-0994","latitude":39.2068179297,"longitude":-77.2373667612}
{"name":"Capt James E Daly ES","category":"ELEMENTARY SCHOOLS","city":"Germantown","address":"20301 Brandermill Dr","phone":"301-353-0939","latitude":39.1894917072,"longitude":-77.232435198}
{"name":"Waters Landing ES","category":"ELEMENTARY SCHOOLS","city":"Germantown","address":"13100 Waters Landing Dr","phone":"301-353-0915","latitude":39.1886082714,"longitude":-77.2686132909}
{"name":"Damascus ES","category":"ELEMENTARY SCHOOLS","city":"Damascus","address":"10201 Bethesda Church Rd","phone":"301-253-7080","latitude":39.285505588,"longitude":-77.2110705499}
{"name":"Cedar Grove ES","category":"ELEMENTARY SCHOOLS","city":"Germantown","address":"24001 Ridge Rd","phone":"301-253-7000","latitude":39.2493904272,"longitude":-77.2322649942}
{"name":"Clearspring ES","category":"ELEMENTARY SCHOOLS","city":"Damascus","address":"9930 Moyer Rd","phone":"301-253-7004","latitude":39.265783191,"longitude":-77.2073011632}
{"name":"Lois P Rockwell ES","category":"ELEMENTARY SCHOOLS","city":"Damascus","address":"24555 Cutsail Dr","phone":"301-253-7088","latitude":39.2562232443,"longitude":-77.2141008476}
{"name":"Woodfield ES","category":"ELEMENTARY SCHOOLS","city":"Gaithersburg","address":"24200 Woodfield Rd","phone":"301-253-7085","latitude":39.2527827289,"longitude":-77.1982813985}
{"name":"Clarksburg ES","category":"ELEMENTARY SCHOOLS","city":"Clarksburg","address":"13530 Redgrave Pl","phone":"301-353-8060","latitude":39.2368552824,"longitude":-77.2815170741}
{"name":"Chevy Chase ES","category":"ELEMENTARY SCHOOLS","city":"Chevy Chase","address":"4015 Rosemary St","phone":"301-657-4994","latitude":38.9785671729,"longitude":-77.0802384598}
{"name":"Bannockburn ES","category":"ELEMENTARY SCHOOLS","city":"Bethesda","address":"6520 Dalroy La","phone":"301-320-6555","latitude":38.974375007,"longitude":-77.1383339932}
{"name":"Burning Tree ES","category":"ELEMENTARY SCHOOLS","city":"Bethesda","address":"7900 Beech Tree Rd","phone":"301-320-6510","latitude":38.9899689499,"longitude":-77.1433852431}
{"name":"Wood Acres ES","category":"ELEMENTARY SCHOOLS","city":"Bethesda","address":"5800 Cromwell Dr","phone":"301-320-6502","latitude":38.9675865435,"longitude":-77.1186718959}
{"name":"Somerset ES","category":"ELEMENTARY SCHOOLS","city":"Chevy Chase","address":"5811 Warwick Pl","phone":"301-657-4985","latitude":38.9691922144,"longitude":-77.092408162}
{"name":"Westbrook ES","category":"ELEMENTARY SCHOOLS","city":"Bethesda","address":"5110 Allan Ter","phone":"301-320-6506","latitude":38.9584710865,"longitude":-77.1028193264}
{"name":"Bethesda ES","category":"ELEMENTARY SCHOOLS","city":"Bethesda","address":"7600 Arlington Rd","phone":"301-657-4979","latitude":38.9864595389,"longitude":-77.0998645245}
{"name":"Bradley Hills ES","category":"ELEMENTARY SCHOOLS","city":"Bethesda","address":"8701 Hartsdale Ave","phone":"301-571-6966","latitude":38.9996852991,"longitude":-77.118061653}
{"name":"Wayside ES","category":"ELEMENTARY SCHOOLS","city":"Potomac","address":"10011 Glen Rd","phone":"301-279-8484","latitude":39.0475503295,"longitude":-77.2061907116}
{"name":"Beverly Farms ES (Construction)","category":"ELEMENTARY SCHOOLS","city":"Potomac","address":"8501 Post Oak Rd","phone":"301-469-1050","latitude":39.052145262,"longitude":-77.1763322374}
{"name":"Ritchie Park ES","category":"ELEMENTARY SCHOOLS","city":"Rockville","address":"1514 Dunster Rd","phone":"301-279-8475","latitude":39.0631353305,"longitude":-77.1744365305}
{"name":"Farmland ES","category":"ELEMENTARY SCHOOLS","city":"Rockville","address":"7000 Old Gate Rd","phone":"301-230-5919","latitude":39.0471937956,"longitude":-77.1452755671}
{"name":"Luxmanor ES","category":"ELEMENTARY SCHOOLS","city":"Rockville","address":"6201 Tilden La","phone":"301-230-5914","latitude":39.0448713701,"longitude":-77.1272246138}
{"name":"Bells Mill ES","category":"ELEMENTARY SCHOOLS","city":"Potomac","address":"8225 Bells Mill Rd","phone":"301-469-1046","latitude":39.0320119149,"longitude":-77.1687400874}
{"name":"Potomac ES","category":"ELEMENTARY SCHOOLS","city":"Potomac","address":"10311 River Rd","phone":"301-469-1042","latitude":39.0216533251,"longitude":-77.2132952636}
{"name":"Seven Locks ES (at Radnor Center)","category":"ELEMENTARY SCHOOLS","city":"Bethesda","address":"7000 Radnor Rd","phone":"301-469-1038","latitude":38.9790958064,"longitude":-77.114718632}
{"name":"Seven Locks ES (Construction)","category":"ELEMENTARY SCHOOLS","city":"Bethesda","address":"9500 Seven Locks Rd","phone":"301-469-1038","latitude":39.0123627913,"longitude":-77.16113969}
{"name":"Ashburton ES","category":"ELEMENTARY SCHOOLS","city":"Bethesda","address":"6314 Lone Oak Dr","phone":"301-571-6959","latitude":39.0194442555,"longitude":-77.1277212211}
{"name":"Wyngate ES","category":"ELEMENTARY SCHOOLS","city":"Bethesda","address":"9300 Wadsworth Dr","phone":"301-571-6979","latitude":39.0093256299,"longitude":-77.1282437122}
{"name":"Garrett Park ES (Construction)","category":"ELEMENTARY SCHOOLS","city":"Garrett Park","address":"4810 Oxford St","phone":"301-929-2170","latitude":39.0330455094,"longitude":-77.0965815552}
{"name":"Kensington Parkwood ES","category":"ELEMENTARY SCHOOLS","city":"Kensington","address":"4710 Saul Rd","phone":"301-571-6949","latitude":39.0217956579,"longitude":-77.0949119854}
{"name":"Rock Creek Forest ES","category":"ELEMENTARY SCHOOLS","city":"Chevy Chase","address":"8330 Grubb Rd","phone":"301-650-6410","latitude":38.9922962885,"longitude":-77.0512978748}
{"name":"Woodlin ES","category":"ELEMENTARY SCHOOLS","city":"Silver Spring","address":"2101 Luzerne Ave","phone":"301-650-6440","latitude":39.0065373884,"longitude":-77.0467716274}
{"name":"Rosemary Hills ES","category":"ELEMENTARY SCHOOLS","city":"Silver Spring","address":"2111 Porter Rd","phone":"301-650-6400","latitude":39.0013306373,"longitude":-77.0451517607}
{"name":"Piney Branch ES","category":"ELEMENTARY SCHOOLS","city":"Takoma Park","address":"7510 Maple Ave","phone":"301-891-8000","latitude":38.9821316553,"longitude":-77.0093788825}
{"name":"East Silver Spring ES","category":"ELEMENTARY SCHOOLS","city":"Silver Spring","address":"631 Silver Spring Ave","phone":"301-650-6420","latitude":38.9923950104,"longitude":-77.0152105919}
{"name":"Takoma Park ES","category":"ELEMENTARY SCHOOLS","city":"Takoma Park","address":"7511 Holly Ave","phone":"301-650-6414","latitude":38.9826597502,"longitude":-77.0124148794}
{"name":"North Chevy Chase ES","category":"ELEMENTARY SCHOOLS","city":"Chevy Chase","address":"3700 Jones Bridge Rd","phone":"301-657-4950","latitude":38.9987705251,"longitude":-77.073432352}
{"name":"Pine Crest ES","category":"ELEMENTARY SCHOOLS","city":"Silver Spring","address":"201 Woodmoor Dr","phone":"301-649-8066","latitude":39.0213110705,"longitude":-77.0050375472}
{"name":"Cresthaven ES","category":"ELEMENTARY SCHOOLS","city":"Silver Spring","address":"1234 Cresthaven Dr","phone":"301-431-7622","latitude":39.0274886611,"longitude":-76.9876315723}
{"name":"Oak View ES","category":"ELEMENTARY SCHOOLS","city":"Silver Spring","address":"400 E Wayne Ave","phone":"301-650-6434","latitude":39.0045260505,"longitude":-77.0024156168}
{"name":"Highland View ES","category":"ELEMENTARY SCHOOLS","city":"Silver Spring","address":"9010 Providence Ave","phone":"301-650-6426","latitude":39.0042511332,"longitude":-77.0103578619}
{"name":"Montgomery Knolls ES","category":"ELEMENTARY SCHOOLS","city":"Silver Spring","address":"807 Daleview Dr","phone":"301-431-7667","latitude":39.0057482268,"longitude":-76.9931786787}
{"name":"Broad Acres ES","category":"ELEMENTARY SCHOOLS","city":"Silver Spring","address":"710 Beacon Rd","phone":"301-431-7616","latitude":39.0093594505,"longitude":-76.9851884399}
{"name":"New Hampshire Estates ES","category":"ELEMENTARY SCHOOLS","city":"Silver Spring","address":"8720 Carroll Ave","phone":"301-431-7607","latitude":38.9981968148,"longitude":-76.9923045793}
{"name":"Rolling Terrace ES","category":"ELEMENTARY SCHOOLS","city":"Takoma Park","address":"705 Bayfield St","phone":"301-431-7600","latitude":38.995168098,"longitude":-76.9972611451}
{"name":"Highland ES","category":"ELEMENTARY SCHOOLS","city":"Silver Spring","address":"3100 Medway St","phone":"301-929-2040","latitude":39.0511227,"longitude":-77.0639085292}
{"name":"Oakland Terrace ES","category":"ELEMENTARY SCHOOLS","city":"Silver Spring","address":"2720 Plyers Mill Rd","phone":"301-929-2161","latitude":39.0286194203,"longitude":-77.0573923387}
{"name":"Rock View ES","category":"ELEMENTARY SCHOOLS","city":"Kensington","address":"3901 Denfeld Ave","phone":"301-929-2002","latitude":39.0395140953,"longitude":-77.0769950641}
{"name":"Viers Mill ES","category":"ELEMENTARY SCHOOLS","city":"Silver Spring","address":"11711 Joseph Mill Rd","phone":"301-929-2165","latitude":39.048502748,"longitude":-77.0852891291}
{"name":"Wheaton Woods ES","category":"ELEMENTARY SCHOOLS","city":"Rockville","address":"4510 Faroe Pl","phone":"301-929-2018","latitude":39.0682491425,"longitude":-77.0902208543}
{"name":"Weller Road ES","category":"ELEMENTARY SCHOOLS","city":"Silver Spring","address":"3301 Weller Rd","phone":"301-929-2010","latitude":39.0654368354,"longitude":-77.06706298}
{"name":"Georgian Forest ES","category":"ELEMENTARY SCHOOLS","city":"Silver Spring","address":"3100 Regina Dr","phone":"301-460-2170","latitude":39.0756428629,"longitude":-77.0614546922}
{"name":"Harmony Hills ES","category":"ELEMENTARY SCHOOLS","city":"Silver Spring","address":"13407 Lydia St","phone":"301-929-2157","latitude":39.0766059586,"longitude":-77.0761131795}
{"name":"Bel Pre ES","category":"ELEMENTARY SCHOOLS","city":"Silver Spring","address":"13801 Rippling Brook Dr","phone":"301-460-2145","latitude":39.0816042674,"longitude":-77.0547238659}
{"name":"Glen Haven ES","category":"ELEMENTARY SCHOOLS","city":"Silver Spring","address":"10900 Inwood Ave","phone":"301-649-8051","latitude":39.0338425388,"longitude":-77.0370393611}
{"name":"Kemp Mill ES","category":"ELEMENTARY SCHOOLS","city":"Silver Spring","address":"411 Sisson St","phone":"301-649-8046","latitude":39.0436381558,"longitude":-77.0170471225}
{"name":"Burnt Mills ES","category":"ELEMENTARY SCHOOLS","city":"Silver Spring","address":"11211 Childs St","phone":"301-649-8192","latitude":39.0394753102,"longitude":-77.0017610753}
{"name":"Forest Knolls ES","category":"ELEMENTARY SCHOOLS","city":"Silver Spring","address":"10830 Eastwood Ave","phone":"301-649-8060","latitude":39.0333104381,"longitude":-77.0204193723}
{"name":"Glenallan ES","category":"ELEMENTARY SCHOOLS","city":"Silver Spring","address":"12520 Heurich Rd","phone":"301-929-2014","latitude":39.0613561538,"longitude":-77.0413621208}
{"name":"Westover ES","category":"ELEMENTARY SCHOOLS","city":"Silver Spring","address":"401 Hawkesbury La","phone":"301-989-5676","latitude":39.0748642774,"longitude":-77.0180223922}
{"name":"Cannon Road ES (Construction)","category":"ELEMENTARY SCHOOLS","city":"Silver Spring","address":"901 Cannon Rd","phone":"301-989-5662","latitude":39.0687671595,"longitude":-76.9941729238}
{"name":"William T Page ES","category":"ELEMENTARY SCHOOLS","city":"Silver Spring","address":"13400 Tamarack Rd","phone":"301-989-5672","latitude":39.0749086167,"longitude":-76.9835905797}
{"name":"Jackson Road ES","category":"ELEMENTARY SCHOOLS","city":"Silver Spring","address":"900 Jackson Rd","phone":"301-989-5650","latitude":39.0564225207,"longitude":-76.9918070316}
{"name":"Galway ES","category":"ELEMENTARY SCHOOLS","city":"Silver Spring","address":"12612 Galway Dr","phone":"301-595-2930","latitude":39.0639572983,"longitude":-76.9463103201}
{"name":"Greencastle ES","category":"ELEMENTARY SCHOOLS","city":"Silver Spring","address":"13611 Robey Rd","phone":"301-595-2940","latitude":39.0804194508,"longitude":-76.9417549222}
{"name":"Fairland ES","category":"ELEMENTARY SCHOOLS","city":"Silver Spring","address":"14315 Fairdale Rd","phone":"301-989-5658","latitude":39.0906439188,"longitude":-76.9561706003}
{"name":"Spark M Matsunaga ES","category":"ELEMENTARY SCHOOLS","city":"Germantown","address":"13902 Bromfield Road","phone":"301-601-4350","latitude":39.1507070468,"longitude":-77.2927303852}
{"name":"Sligo Creek ES","category":"ELEMENTARY SCHOOLS","city":"Silver Spring","address":"500 Schuyler Rd","phone":"301-562-2722","latitude":39.0004315169,"longitude":-77.0157924626}
{"name":"Lakewood ES","category":"ELEMENTARY SCHOOLS","city":"Rockville","address":"2534 Lindley Ter","phone":"301-279-8465","latitude":39.0879540935,"longitude":-77.1940772943}
{"name":"Cold Spring ES","category":"ELEMENTARY SCHOOLS","city":"Potomac","address":"9201 Falls Chapel Way","phone":"301-279-8480","latitude":39.0592190026,"longitude":-77.1888641311}
{"name":"Burtonsville ES","category":"ELEMENTARY SCHOOLS","city":"Burtonsville","address":"15516 Old Columbia Pik","phone":"301-989-5654","latitude":39.1113736951,"longitude":-76.9364158921}
{"name":"Stonegate ES","category":"ELEMENTARY SCHOOLS","city":"Silver Spring","address":"14811 Notley Rd","phone":"301-989-5668","latitude":39.0995467662,"longitude":-77.0157475178}
{"name":"Cloverly ES","category":"ELEMENTARY SCHOOLS","city":"Silver Spring","address":"800 Briggs Chaney Rd","phone":"301-989-5770","latitude":39.1076890075,"longitude":-76.9942569561}
{"name":"Dr Charles R Drew ES","category":"ELEMENTARY SCHOOLS","city":"Silver Spring","address":"1200 Swingingdale Dr","phone":"301-989-6030","latitude":39.0916281714,"longitude":-76.9871082262}
{"name":"Sherwood ES","category":"ELEMENTARY SCHOOLS","city":"Sandy Spring","address":"1401 Olney Sandy Spring Rd","phone":"301-924-3195","latitude":39.1495841588,"longitude":-77.0331164576}
{"name":"Brooke Grove ES","category":"ELEMENTARY SCHOOLS","city":"Olney","address":"2700 Spartan Rd","phone":"301-924-3154","latitude":39.1568438213,"longitude":-77.0505720393}
{"name":"Olney ES","category":"ELEMENTARY SCHOOLS","city":"Olney","address":"3401 Queen Mary Dr","phone":"301-924-3126","latitude":39.1492298699,"longitude":-77.0682809714}
{"name":"Belmont ES","category":"ELEMENTARY SCHOOLS","city":"Olney","address":"19528 Olney Mill Rd","phone":"301-924-3140","latitude":39.1785814737,"longitude":-77.0668029032}
{"name":"Cashell ES","category":"ELEMENTARY SCHOOLS","city":"Rockville","address":"17101 Cashell Rd","phone":"301-924-3130","latitude":39.1373140735,"longitude":-77.0859177884}
{"name":"Greenwood ES","category":"ELEMENTARY SCHOOLS","city":"Brookeville","address":"3336 Gold Mine Rd","phone":"301-924-3145","latitude":39.1652320194,"longitude":-77.0647632594}
{"name":"Mill Creek Towne ES","category":"ELEMENTARY SCHOOLS","city":"Rockville","address":"17700 Park Mill Dr","phone":"301-840-7149","latitude":39.146421794,"longitude":-77.1538014464}
{"name":"Candlewood ES","category":"ELEMENTARY SCHOOLS","city":"Rockville","address":"7210 Osprey Dr","phone":"301-840-7167","latitude":39.1290023776,"longitude":-77.1470003793}
{"name":"Sequoyah ES","category":"ELEMENTARY SCHOOLS","city":"Derwood","address":"17301 Bowie Mill Rd","phone":"301-840-5335","latitude":39.1392853217,"longitude":-77.1177456873}
{"name":"Rosemont ES","category":"ELEMENTARY SCHOOLS","city":"Gaithersburg","address":"16400 Alden Ave","phone":"301-840-7123","latitude":39.1251152677,"longitude":-77.1852514951}
{"name":"Summit Hall ES","category":"ELEMENTARY SCHOOLS","city":"Gaithersburg","address":"101 W Deer Park Rd","phone":"301-840-7127","latitude":39.127282494,"longitude":-77.195457283}
{"name":"Washington Grove ES","category":"ELEMENTARY SCHOOLS","city":"Gaithersburg","address":"8712 Oakmont St","phone":"301-840-7120","latitude":39.1324887754,"longitude":-77.1777402319}
{"name":"Gaithersburg ES","category":"ELEMENTARY SCHOOLS","city":"Gaithersburg","address":"35 N Summit Ave","phone":"301-840-7136","latitude":39.1435715404,"longitude":-77.1920511474}
{"name":"Whetstone ES","category":"ELEMENTARY SCHOOLS","city":"Gaithersburg","address":"19201 Thomas Farm Dr","phone":"301-840-7191","latitude":39.1718688083,"longitude":-77.1969947933}
{"name":"South Lake ES","category":"ELEMENTARY SCHOOLS","city":"Gaithersburg","address":"18201 Contour Rd","phone":"301-840-7141","latitude":39.1558163309,"longitude":-77.1969833619}
{"name":"Watkins Mill ES","category":"ELEMENTARY SCHOOLS","city":"Montgomery Village","address":"19001 Watkins Mill Rd","phone":"301-840-7181","latitude":39.1672209879,"longitude":-77.2110251862}
{"name":"Strawberry Knoll ES","category":"ELEMENTARY SCHOOLS","city":"Gaithersburg","address":"18820 Strawberry Knoll Rd","phone":"301-840-7112","latitude":39.1658673386,"longitude":-77.1825348422}
{"name":"Flower Hill ES","category":"ELEMENTARY SCHOOLS","city":"Gaithersburg","address":"18425 Flower Hill Way","phone":"301-840-7161","latitude":39.1590075849,"longitude":-77.1713034798}
{"name":"Stedwick ES","category":"ELEMENTARY SCHOOLS","city":"Montgomery Village","address":"10631 Stedwick Rd","phone":"301-840-7187","latitude":39.1743636993,"longitude":-77.2111923449}
{"name":"S Christa Mcauliffe ES","category":"ELEMENTARY SCHOOLS","city":"Germantown","address":"12500 Wisteria Dr","phone":"301-353-0910","latitude":39.167507691,"longitude":-77.2609323153}
{"name":"Fox Chapel ES","category":"ELEMENTARY SCHOOLS","city":"Germantown","address":"19315 Archdale Rd","phone":"301-353-8055","latitude":39.1722018594,"longitude":-77.2421897485}
{"name":"Thurgood Marshall ES","category":"ELEMENTARY SCHOOLS","city":"Gaithersburg","address":"12260 McDonald Chapel Dr","phone":"301-670-8282","latitude":39.1262200858,"longitude":-77.2598691505}
{"name":"Diamond ES","category":"ELEMENTARY SCHOOLS","city":"Gaithersburg","address":"4 Marquis Dr","phone":"301-840-7177","latitude":39.1357087649,"longitude":-77.2389185172}
{"name":"Brown Station ES","category":"ELEMENTARY SCHOOLS","city":"Gaithersburg","address":"851 Quince Orchard Blv","phone":"301-840-7172","latitude":39.1388830108,"longitude":-77.2307127305}
{"name":"Travilah ES","category":"ELEMENTARY SCHOOLS","city":"North Potomac","address":"13801 DuFief Mill Rd","phone":"301-840-7153","latitude":39.0824785544,"longitude":-77.2486226133}
{"name":"Rachel Carson ES","category":"ELEMENTARY SCHOOLS","city":"Gaithersburg","address":"100 Tschiffely Square Rd","phone":"301-840-5333","latitude":39.1170772504,"longitude":-77.2470359348}
{"name":"Darnestown ES","category":"ELEMENTARY SCHOOLS","city":"Gaithersburg","address":"15030 Turkey Foot Rd","phone":"301-840-7157","latitude":39.1025388648,"longitude":-77.2847480232}
{"name":"Jones Lane ES","category":"ELEMENTARY SCHOOLS","city":"Gaithersburg","address":"15110 Jones La","phone":"301-840-8160","latitude":39.1033700765,"longitude":-77.2658471483}
{"name":"Fields Road ES","category":"ELEMENTARY SCHOOLS","city":"Gaithersburg","address":"1 School Dr","phone":"301-840-7131","latitude":39.118795239,"longitude":-77.2152401168}
{"name":"Stone Mill ES","category":"ELEMENTARY SCHOOLS","city":"North Potomac","address":"14323 Stonebridge View Dr","phone":"301-279-4975","latitude":39.0916377183,"longitude":-77.2144612215}
{"name":"Little Bennett ES","category":"ELEMENTARY SCHOOLS","city":"Clarksburg","address":"23930 Burdette Forest Rd","phone":"301-540-5535","latitude":39.246445809,"longitude":-77.2753630947}
{"name":"Sargent Shriver ES","category":"ELEMENTARY SCHOOLS","city":"Silver Spring","address":"12518 Greenly Dr","phone":"301-929-4426","latitude":39.0615504152,"longitude":-77.0791590245}
{"name":"Roscoe R Nix ES","category":"ELEMENTARY SCHOOLS","city":"Silver Spring","address":"1100 Corliss St","phone":"301-422-5070","latitude":39.0168668083,"longitude":-76.9896552883}
{"name":"Great Seneca Creek ES","category":"ELEMENTARY SCHOOLS","city":"Germantown","address":"13010 Dairymaid Dr","phone":"301-353-8500","latitude":39.1522616814,"longitude":-77.2691896298}
{"name":"Arcola ES","category":"ELEMENTARY SCHOOLS","city":"Silver Spring","address":"1820 Franwall Ave","phone":"301-649-8590","latitude":39.0455588679,"longitude":-77.0393881959}
{"name":"William B Gibbs Jr ES","category":"ELEMENTARY SCHOOLS","city":"Clarksburg","address":"12615 Royal Crown Dr","phone":"301-353-0800","latitude":39.2057196485,"longitude":-77.2596251938}
{"name":"Cannon Road ES (at Fairland Center)","category":"ELEMENTARY SCHOOLS","city":"Silver Spring","address":"13313 Old Columbia Pike","phone":"301-989-5662","latitude":39.0746038591,"longitude":-76.9578934897}
{"name":"Beverly Farms ES (at North Lake Center)","category":"ELEMENTARY SCHOOLS","city":"Rockville","address":"15101 Bauer Dr","phone":"301-469-1050","latitude":39.1027313861,"longitude":-77.1040071157}
{"name":"Carderock Springs ES","category":"ELEMENTARY SCHOOLS","city":"Bethesda","address":"7401 Persimmon Tree La","phone":"301-469-1034","latitude":38.9832956271,"longitude":-77.1717600546}
{"name":"Downcounty Consortium ES (2012)","category":"ELEMENTARY SCHOOLS","city":"Silver Spring","address":"2600 Hayden Dr","phone":"301-309-6277","latitude":39.0191171311,"longitude":-77.0545584109}
{"name":"Garrett Park ES (at Grosvenor Center)","category":"ELEMENTARY SCHOOLS","city":"Bethesda","address":"5701 Grosvenor La","phone":"301-929-2170","latitude":39.0235338133,"longitude":-77.1141310594}
{"name":"Fallsmead ES","category":"ELEMENTARY SCHOOLS","city":"Rockville","address":"1800 Greenplace Ter","phone":"301-279-4984","latitude":39.0779606451,"longitude":-77.1765379964}
{"name":"Beall ES","category":"ELEMENTARY SCHOOLS","city":"Rockville","address":"451 Beall Ave","phone":"301-279-8460","latitude":39.0877753931,"longitude":-77.161758368}
{"name":"College Gardens ES","category":"ELEMENTARY SCHOOLS","city":"Rockville","address":"1700 Yale Pl","phone":"301-279-8470","latitude":39.1028873778,"longitude":-77.1627838116}
{"name":"Dufief ES","category":"ELEMENTARY SCHOOLS","city":"Gaithersburg","address":"15001 DuFief Dr","phone":"301-279-4980","latitude":39.1018337081,"longitude":-77.2375326482}
{"name":"Maryvale ES","category":"ELEMENTARY SCHOOLS","city":"Rockville","address":"1000 First St","phone":"301-279-4990","latitude":39.0912671214,"longitude":-77.1369670183}
{"name":"Meadow Hall ES","category":"ELEMENTARY SCHOOLS","city":"Rockville","address":"951 Twinbrook Pkwy","phone":"301-279-4988","latitude":39.0843521349,"longitude":-77.1164059038}
{"name":"Lucy V Barnsley ES","category":"ELEMENTARY SCHOOLS","city":"Rockville","address":"14516 Nadine Dr","phone":"301-460-2121","latitude":39.0941208289,"longitude":-77.103587056}
{"name":"Twinbrook ES","category":"ELEMENTARY SCHOOLS","city":"Rockville","address":"5911 Ridgeway Ave","phone":"301-230-5925","latitude":39.0687280318,"longitude":-77.1200953184}
{"name":"Rock Creek Valley ES","category":"ELEMENTARY SCHOOLS","city":"Rockville","address":"5121 Russett Rd","phone":"301-460-2195","latitude":39.0832114316,"longitude":-77.102608554}
{"name":"Brookhaven ES","category":"ELEMENTARY SCHOOLS","city":"Rockville","address":"4610 Renn St","phone":"301-460-2140","latitude":39.0822509877,"longitude":-77.0925980063}
{"name":"Flower Valley ES","category":"ELEMENTARY SCHOOLS","city":"Rockville","address":"4615 Sunflower Dr","phone":"301-924-3135","latitude":39.1057704102,"longitude":-77.0930515019}
{"name":"Strathmore ES","category":"ELEMENTARY SCHOOLS","city":"Silver Spring","address":"3200 Beaverwood La","phone":"301-460-2135","latitude":39.0860669739,"longitude":-77.0654349871}
{"name":"Judith A Resnik ES","category":"ELEMENTARY SCHOOLS","city":"Gaithersburg","address":"7301 Hadley Farms Dr","phone":"301-670-8200","latitude":39.181576738,"longitude":-77.1519858022}
{"name":"Laytonsville ES","category":"ELEMENTARY SCHOOLS","city":"Laytonsville","address":"21401 Laytonsville Rd","phone":"301-840-7145","latitude":39.2070466834,"longitude":-77.1403377171}
{"name":"Goshen ES","category":"ELEMENTARY SCHOOLS","city":"Gaithersburg","address":"8701 Warfield Rd","phone":"301-840-8165","latitude":39.194373374,"longitude":-77.1798890434}
{"name":"Ronald McNair ES","category":"ELEMENTARY SCHOOLS","city":"Germantown","address":"13881 Hopkins Rd","phone":"301-353-0854","latitude":39.1697657621,"longitude":-77.2905682704}
{"name":"Lake Seneca ES","category":"ELEMENTARY SCHOOLS","city":"Germantown","address":"13600 Wanegarden Dr","phone":"301-353-0929","latitude":39.1832743058,"longitude":-77.2831202702}
{"name":"Clopper Mill ES","category":"ELEMENTARY SCHOOLS","city":"Germantown","address":"18501 Cinnamon Dr","phone":"301-353-8065","latitude":39.1590306504,"longitude":-77.2616942414}
{"name":"Germantown ES","category":"ELEMENTARY SCHOOLS","city":"Germantown","address":"19110 Liberty Mill Road","phone":"301-353-8050","latitude":39.1698143709,"longitude":-77.27642324}
{"name":"Poolesville ES","category":"ELEMENTARY SCHOOLS","city":"Poolesville","address":"19565 Fisher Ave","phone":"301-972-7960","latitude":39.1440313164,"longitude":-77.4074075374}
{"name":"Monocacy ES","category":"ELEMENTARY SCHOOLS","city":"Dickerson","address":"18801 Barnesville Rd","phone":"301-972-7990","latitude":39.224265906,"longitude":-77.392841199}
